[
  {"name":"London","iso":"GB","lat":51.5074,"lon":-0.1278,"aliases":["london","ldn"]},
  {"name":"Manchester","iso":"GB","lat":53.4808,"lon":-2.2426,"aliases":["manchester","mcr"]},
  {"name":"Birmingham","iso":"GB","lat":52.4862,"lon":-1.8904,"aliases":["birmingham"]},
  {"name":"Dublin","iso":"IE","lat":53.3498,"lon":-6.2603,"aliases":["dublin"]},
  {"name":"Paris","iso":"FR","lat":48.8566,"lon":2.3522,"aliases":["paris"]},
  {"name":"Lyon","iso":"FR","lat":45.764,"lon":4.8357,"aliases":["lyon"]},
  {"name":"Marseille","iso":"FR","lat":43.2965,"lon":5.3698,"aliases":["marseille"]},
  {"name":"Madrid","iso":"ES","lat":40.4168,"lon":-3.7038,"aliases":["madrid"]},
  {"name":"Barcelona","iso":"ES","lat":41.3874,"lon":2.1686,"aliases":["barcelona","barca"]},
  {"name":"Valencia","iso":"ES","lat":39.4699,"lon":-0.3763,"aliases":["valencia"]},
  {"name":"Seville","iso":"ES","lat":37.3891,"lon":-5.9845,"aliases":["seville","sevilla"]},
  {"name":"Lisbon","iso":"PT","lat":38.7223,"lon":-9.1393,"aliases":["lisbon","lisboa"]},
  {"name":"Porto","iso":"PT","lat":41.1579,"lon":-8.6291,"aliases":["porto"]},
  {"name":"Berlin","iso":"DE","lat":52.52,"lon":13.405,"aliases":["berlin"]},
  {"name":"Hamburg","iso":"DE","lat":53.5511,"lon":9.9937,"aliases":["hamburg"]},
  {"name":"Munich","iso":"DE","lat":48.1351,"lon":11.582,"aliases":["munich","munchen","muenchen"]},
  {"name":"Frankfurt","iso":"DE","lat":50.1109,"lon":8.6821,"aliases":["frankfurt"]},
  {"name":"Cologne","iso":"DE","lat":50.9375,"lon":6.9603,"aliases":["cologne","koln","koeln"]},
  {"name":"Amsterdam","iso":"NL","lat":52.3676,"lon":4.9041,"aliases":["amsterdam","ams"]},
  {"name":"Rotterdam","iso":"NL","lat":51.9244,"lon":4.4777,"aliases":["rotterdam"]},
  {"name":"Brussels","iso":"BE","lat":50.8503,"lon":4.3517,"aliases":["brussels","bruxelles"]},
  {"name":"Antwerp","iso":"BE","lat":51.2194,"lon":4.4025,"aliases":["antwerp","antwerpen"]},
  {"name":"Zurich","iso":"CH","lat":47.3769,"lon":8.5417,"aliases":["zurich","zuerich"]},
  {"name":"Geneva","iso":"CH","lat":46.2044,"lon":6.1432,"aliases":["geneva","geneve"]},
  {"name":"Vienna","iso":"AT","lat":48.2082,"lon":16.3738,"aliases":["vienna","wien"]},
  {"name":"Prague","iso":"CZ","lat":50.0755,"lon":14.4378,"aliases":["prague","praha"]},
  {"name":"Warsaw","iso":"PL","lat":52.2297,"lon":21.0122,"aliases":["warsaw","warszawa"]},
  {"name":"Krakow","iso":"PL","lat":50.0647,"lon":19.945,"aliases":["krakow"]},
  {"name":"Budapest","iso":"HU","lat":47.4979,"lon":19.0402,"aliases":["budapest"]},
  {"name":"Bucharest","iso":"RO","lat":44.4268,"lon":26.1025,"aliases":["bucharest","bucuresti"]},
  {"name":"Sofia","iso":"BG","lat":42.6977,"lon":23.3219,"aliases":["sofia"]},
  {"name":"Belgrade","iso":"RS","lat":44.7866,"lon":20.4489,"aliases":["belgrade","beograd"]},
  {"name":"Zagreb","iso":"HR","lat":45.815,"lon":15.9819,"aliases":["zagreb"]},
  {"name":"Ljubljana","iso":"SI","lat":46.0569,"lon":14.5058,"aliases":["ljubljana"]},
  {"name":"Bratislava","iso":"SK","lat":48.1486,"lon":17.1077,"aliases":["bratislava"]},
  {"name":"Copenhagen","iso":"DK","lat":55.6761,"lon":12.5683,"aliases":["copenhagen","kobenhavn"]},
  {"name":"Stockholm","iso":"SE","lat":59.3293,"lon":18.0686,"aliases":["stockholm"]},
  {"name":"Oslo","iso":"NO","lat":59.9139,"lon":10.7522,"aliases":["oslo"]},
  {"name":"Helsinki","iso":"FI","lat":60.1699,"lon":24.9384,"aliases":["helsinki"]},
  {"name":"Reykjavik","iso":"IS","lat":64.1466,"lon":-21.9426,"aliases":["reykjavik"]},
  {"name":"Athens","iso":"GR","lat":37.9838,"lon":23.7275,"aliases":["athens","athina"]},
  {"name":"Thessaloniki","iso":"GR","lat":40.6401,"lon":22.9444,"aliases":["thessaloniki","thess"]},
  {"name":"Rome","iso":"IT","lat":41.9028,"lon":12.4964,"aliases":["rome","roma"]},
  {"name":"Milan","iso":"IT","lat":45.4642,"lon":9.19,"aliases":["milan","milano"]},
  {"name":"Naples","iso":"IT","lat":40.8518,"lon":14.2681,"aliases":["naples","napoli"]},
  {"name":"Turin","iso":"IT","lat":45.0703,"lon":7.6869,"aliases":["turin","torino"]},
  {"name":"Florence","iso":"IT","lat":43.7696,"lon":11.2558,"aliases":["florence","firenze"]},
  {"name":"Venice","iso":"IT","lat":45.4408,"lon":12.3155,"aliases":["venice","venezia"]},
  {"name":"Istanbul","iso":"TR","lat":41.0082,"lon":28.9784,"aliases":["istanbul"]},
  {"name":"Ankara","iso":"TR","lat":39.9334,"lon":32.8597,"aliases":["ankara"]},
  {"name":"Kyiv","iso":"UA","lat":50.4501,"lon":30.5234,"aliases":["kyiv","kiev"]},
  {"name":"Riga","iso":"LV","lat":56.9496,"lon":24.1052,"aliases":["riga"]},
  {"name":"Vilnius","iso":"LT","lat":54.6872,"lon":25.2797,"aliases":["vilnius"]},
  {"name":"Tallinn","iso":"EE","lat":59.437,"lon":24.7536,"aliases":["tallinn"]},
  {"name":"New York City","iso":"US","lat":40.7128,"lon":-74.006,"aliases":["new york","nyc","new york city"]},
  {"name":"Los Angeles","iso":"US","lat":34.0522,"lon":-118.2437,"aliases":["los angeles","losangeles"]},
  {"name":"Chicago","iso":"US","lat":41.8781,"lon":-87.6298,"aliases":["chicago"]},
  {"name":"Houston","iso":"US","lat":29.7604,"lon":-95.3698,"aliases":["houston"]},
  {"name":"Phoenix","iso":"US","lat":33.4484,"lon":-112.074,"aliases":["phoenix","phx"]},
  {"name":"Philadelphia","iso":"US","lat":39.9526,"lon":-75.1652,"aliases":["philadelphia","philly"]},
  {"name":"San Antonio","iso":"US","lat":29.4241,"lon":-98.4936,"aliases":["san antonio","satx"]},
  {"name":"San Diego","iso":"US","lat":32.7157,"lon":-117.1611,"aliases":["san diego"]},
  {"name":"Dallas","iso":"US","lat":32.7767,"lon":-96.797,"aliases":["dallas","dfw"]},
  {"name":"San Jose","iso":"US","lat":37.3382,"lon":-121.8863,"aliases":["san jose","sj"]},
  {"name":"Austin","iso":"US","lat":30.2672,"lon":-97.7431,"aliases":["austin","atx"]},
  {"name":"Seattle","iso":"US","lat":47.6062,"lon":-122.3321,"aliases":["seattle"]},
  {"name":"Denver","iso":"US","lat":39.7392,"lon":-104.9903,"aliases":["denver","den"]},
  {"name":"Boston","iso":"US","lat":42.3601,"lon":-71.0589,"aliases":["boston"]},
  {"name":"Miami","iso":"US","lat":25.7617,"lon":-80.1918,"aliases":["miami"]},
  {"name":"Atlanta","iso":"US","lat":33.749,"lon":-84.388,"aliases":["atlanta","atl"]},
  {"name":"Washington DC","iso":"US","lat":38.9072,"lon":-77.0369,"aliases":["washington dc","dc"]},
  {"name":"Detroit","iso":"US","lat":42.3314,"lon":-83.0458,"aliases":["detroit"]},
  {"name":"Minneapolis","iso":"US","lat":44.9778,"lon":-93.265,"aliases":["minneapolis","mpls"]},
  {"name":"Saint Louis","iso":"US","lat":38.627,"lon":-90.1994,"aliases":["st louis","saint louis"]},
  {"name":"Portland","iso":"US","lat":45.5152,"lon":-122.6784,"aliases":["portland","pdx"]},
  {"name":"Las Vegas","iso":"US","lat":36.1699,"lon":-115.1398,"aliases":["las vegas","vegas"]},
  {"name":"Charlotte","iso":"US","lat":35.2271,"lon":-80.8431,"aliases":["charlotte","clt"]},
  {"name":"Nashville","iso":"US","lat":36.1627,"lon":-86.7816,"aliases":["nashville"]},
  {"name":"Orlando","iso":"US","lat":28.5383,"lon":-81.3792,"aliases":["orlando"]},
  {"name":"Tampa","iso":"US","lat":27.9506,"lon":-82.4572,"aliases":["tampa"]},
  {"name":"Salt Lake City","iso":"US","lat":40.7608,"lon":-111.891,"aliases":["salt lake city","slc"]},
  {"name":"Kansas City","iso":"US","lat":39.0997,"lon":-94.5786,"aliases":["kansas city","kc"]},
  {"name":"Cleveland","iso":"US","lat":41.4993,"lon":-81.6944,"aliases":["cleveland","cle"]},
  {"name":"Pittsburgh","iso":"US","lat":40.4406,"lon":-79.9959,"aliases":["pittsburgh"]},
  {"name":"San Francisco","iso":"US","lat":37.7749,"lon":-122.4194,"aliases":["san francisco","sf","bay area"]},
  {"name":"Toronto","iso":"CA","lat":43.6532,"lon":-79.3832,"aliases":["toronto","yyz"]},
  {"name":"Montreal","iso":"CA","lat":45.5017,"lon":-73.5673,"aliases":["montreal","mtl"]},
  {"name":"Vancouver","iso":"CA","lat":49.2827,"lon":-123.1207,"aliases":["vancouver","yvr"]},
  {"name":"Calgary","iso":"CA","lat":51.0447,"lon":-114.0719,"aliases":["calgary","yyc"]},
  {"name":"Edmonton","iso":"CA","lat":53.5461,"lon":-113.4938,"aliases":["edmonton","yeg"]},
  {"name":"Ottawa","iso":"CA","lat":45.4215,"lon":-75.6972,"aliases":["ottawa"]},
  {"name":"Winnipeg","iso":"CA","lat":49.8951,"lon":-97.1384,"aliases":["winnipeg"]},
  {"name":"Quebec City","iso":"CA","lat":46.8139,"lon":-71.208,"aliases":["quebec city","quebec"]},
  {"name":"Halifax","iso":"CA","lat":44.6488,"lon":-63.5752,"aliases":["halifax"]},
  {"name":"Victoria","iso":"CA","lat":48.4284,"lon":-123.3656,"aliases":["victoria"]},
  {"name":"Mexico City","iso":"MX","lat":19.4326,"lon":-99.1332,"aliases":["mexico city","cdmx","ciudad de mexico"]},
  {"name":"Guadalajara","iso":"MX","lat":20.6597,"lon":-103.3496,"aliases":["guadalajara","gdl"]},
  {"name":"Monterrey","iso":"MX","lat":25.6866,"lon":-100.3161,"aliases":["monterrey","mty"]},
  {"name":"Tijuana","iso":"MX","lat":32.5149,"lon":-117.0382,"aliases":["tijuana","tj"]},
  {"name":"Puebla","iso":"MX","lat":19.0414,"lon":-98.2063,"aliases":["puebla"]},
  {"name":"Leon","iso":"MX","lat":21.1619,"lon":-101.6869,"aliases":["leon"]},
  {"name":"Cancun","iso":"MX","lat":21.1619,"lon":-86.8515,"aliases":["cancun"]},
  {"name":"Merida","iso":"MX","lat":20.9674,"lon":-89.5926,"aliases":["merida"]},
  {"name":"Ciudad Juarez","iso":"MX","lat":31.6904,"lon":-106.4245,"aliases":["juarez","ciudad juarez"]},
  {"name":"Toluca","iso":"MX","lat":19.2826,"lon":-99.6557,"aliases":["toluca"]},
  {"name":"Sao Paulo","iso":"BR","lat":-23.5505,"lon":-46.6333,"aliases":["sao paulo"]},
  {"name":"Rio de Janeiro","iso":"BR","lat":-22.9068,"lon":-43.1729,"aliases":["rio","rio de janeiro"]},
  {"name":"Brasilia","iso":"BR","lat":-15.7939,"lon":-47.8828,"aliases":["brasilia"]},
  {"name":"Buenos Aires","iso":"AR","lat":-34.6037,"lon":-58.3816,"aliases":["buenos aires","baires"]},
  {"name":"Cordoba","iso":"AR","lat":-31.4201,"lon":-64.1888,"aliases":["cordoba"]},
  {"name":"Santiago","iso":"CL","lat":-33.4489,"lon":-70.6693,"aliases":["santiago"]},
  {"name":"Lima","iso":"PE","lat":-12.0464,"lon":-77.0428,"aliases":["lima"]},
  {"name":"Bogota","iso":"CO","lat":4.711,"lon":-74.0721,"aliases":["bogota"]},
  {"name":"Medellin","iso":"CO","lat":6.2476,"lon":-75.5658,"aliases":["medellin"]},
  {"name":"Quito","iso":"EC","lat":-0.1807,"lon":-78.4678,"aliases":["quito"]},
  {"name":"Guayaquil","iso":"EC","lat":-2.1701,"lon":-79.9224,"aliases":["guayaquil"]},
  {"name":"Montevideo","iso":"UY","lat":-34.9011,"lon":-56.1645,"aliases":["montevideo"]},
  {"name":"Asuncion","iso":"PY","lat":-25.2637,"lon":-57.5759,"aliases":["asuncion"]},
  {"name":"La Paz","iso":"BO","lat":-16.4897,"lon":-68.1193,"aliases":["la paz"]},
  {"name":"Caracas","iso":"VE","lat":10.4806,"lon":-66.9036,"aliases":["caracas"]},
  {"name":"Tokyo","iso":"JP","lat":35.6762,"lon":139.6503,"aliases":["tokyo"]},
  {"name":"Osaka","iso":"JP","lat":34.6937,"lon":135.5023,"aliases":["osaka"]},
  {"name":"Seoul","iso":"KR","lat":37.5665,"lon":126.978,"aliases":["seoul"]},
  {"name":"Busan","iso":"KR","lat":35.1796,"lon":129.0756,"aliases":["busan","pusan"]},
  {"name":"Beijing","iso":"CN","lat":39.9042,"lon":116.4074,"aliases":["beijing","peking"]},
  {"name":"Shanghai","iso":"CN","lat":31.2304,"lon":121.4737,"aliases":["shanghai"]},
  {"name":"Shenzhen","iso":"CN","lat":22.5431,"lon":114.0579,"aliases":["shenzhen"]},
  {"name":"Guangzhou","iso":"CN","lat":23.1291,"lon":113.2644,"aliases":["guangzhou"]},
  {"name":"Hong Kong","iso":"HK","lat":22.3193,"lon":114.1694,"aliases":["hong kong","hk"]},
  {"name":"Taipei","iso":"TW","lat":25.033,"lon":121.5654,"aliases":["taipei"]},
  {"name":"Bangkok","iso":"TH","lat":13.7563,"lon":100.5018,"aliases":["bangkok"]},
  {"name":"Singapore","iso":"SG","lat":1.3521,"lon":103.8198,"aliases":["singapore","sg"]},
  {"name":"Kuala Lumpur","iso":"MY","lat":3.139,"lon":101.6869,"aliases":["kuala lumpur","kl"]},
  {"name":"Jakarta","iso":"ID","lat":-6.2088,"lon":106.8456,"aliases":["jakarta"]},
  {"name":"Manila","iso":"PH","lat":14.5995,"lon":120.9842,"aliases":["manila"]},
  {"name":"Ho Chi Minh City","iso":"VN","lat":10.8231,"lon":106.6297,"aliases":["ho chi minh","saigon","hcmc"]},
  {"name":"Hanoi","iso":"VN","lat":21.0278,"lon":105.8342,"aliases":["hanoi"]},
  {"name":"New Delhi","iso":"IN","lat":28.6139,"lon":77.209,"aliases":["new delhi","delhi"]},
  {"name":"Mumbai","iso":"IN","lat":19.076,"lon":72.8777,"aliases":["mumbai","bombay"]},
  {"name":"Bangalore","iso":"IN","lat":12.9716,"lon":77.5946,"aliases":["bangalore","bengaluru"]},
  {"name":"Chennai","iso":"IN","lat":13.0827,"lon":80.2707,"aliases":["chennai","madras"]},
  {"name":"Kolkata","iso":"IN","lat":22.5726,"lon":88.3639,"aliases":["kolkata","calcutta"]},
  {"name":"Karachi","iso":"PK","lat":24.8607,"lon":67.0011,"aliases":["karachi"]},
  {"name":"Lahore","iso":"PK","lat":31.5204,"lon":74.3587,"aliases":["lahore"]},
  {"name":"Islamabad","iso":"PK","lat":33.6844,"lon":73.0479,"aliases":["islamabad"]},
  {"name":"Dhaka","iso":"BD","lat":23.8103,"lon":90.4125,"aliases":["dhaka"]},
  {"name":"Kathmandu","iso":"NP","lat":27.7172,"lon":85.324,"aliases":["kathmandu"]},
  {"name":"Colombo","iso":"LK","lat":6.9271,"lon":79.8612,"aliases":["colombo"]},
  {"name":"Dubai","iso":"AE","lat":25.2048,"lon":55.2708,"aliases":["dubai"]},
  {"name":"Abu Dhabi","iso":"AE","lat":24.4539,"lon":54.3773,"aliases":["abu dhabi"]},
  {"name":"Riyadh","iso":"SA","lat":24.7136,"lon":46.6753,"aliases":["riyadh"]},
  {"name":"Jeddah","iso":"SA","lat":21.4858,"lon":39.1925,"aliases":["jeddah","jiddah"]},
  {"name":"Doha","iso":"QA","lat":25.2854,"lon":51.531,"aliases":["doha"]},
  {"name":"Kuwait City","iso":"KW","lat":29.3759,"lon":47.9774,"aliases":["kuwait","kuwait city"]},
  {"name":"Tel Aviv","iso":"IL","lat":32.0853,"lon":34.7818,"aliases":["tel aviv"]},
  {"name":"Jerusalem","iso":"IL","lat":31.7683,"lon":35.2137,"aliases":["jerusalem"]},
  {"name":"Cairo","iso":"EG","lat":30.0444,"lon":31.2357,"aliases":["cairo"]},
  {"name":"Tehran","iso":"IR","lat":35.6892,"lon":51.389,"aliases":["tehran"]},
  {"name":"Baghdad","iso":"IQ","lat":33.3128,"lon":44.3615,"aliases":["baghdad"]},
  {"name":"Amman","iso":"JO","lat":31.9454,"lon":35.9284,"aliases":["amman"]},
  {"name":"Beirut","iso":"LB","lat":33.8938,"lon":35.5018,"aliases":["beirut"]},
  {"name":"Johannesburg","iso":"ZA","lat":-26.2041,"lon":28.0473,"aliases":["johannesburg","joburg","jozi"]},
  {"name":"Cape Town","iso":"ZA","lat":-33.9249,"lon":18.4241,"aliases":["cape town","cpt"]},
  {"name":"Lagos","iso":"NG","lat":6.5244,"lon":3.3792,"aliases":["lagos"]},
  {"name":"Nairobi","iso":"KE","lat":-1.2921,"lon":36.8219,"aliases":["nairobi"]},
  {"name":"Accra","iso":"GH","lat":5.6037,"lon":-0.187,"aliases":["accra"]},
  {"name":"Casablanca","iso":"MA","lat":33.5731,"lon":-7.5898,"aliases":["casablanca","casa"]},
  {"name":"Algiers","iso":"DZ","lat":36.7538,"lon":3.0588,"aliases":["algiers","alger"]},
  {"name":"Tunis","iso":"TN","lat":36.8065,"lon":10.1815,"aliases":["tunis"]},
  {"name":"Addis Ababa","iso":"ET","lat":9.03,"lon":38.74,"aliases":["addis ababa"]},
  {"name":"Dakar","iso":"SN","lat":14.7167,"lon":-17.4677,"aliases":["dakar"]},
  {"name":"Abidjan","iso":"CI","lat":5.3453,"lon":-4.0244,"aliases":["abidjan"]},
  {"name":"Kampala","iso":"UG","lat":0.3476,"lon":32.5825,"aliases":["kampala"]},
  {"name":"Sydney","iso":"AU","lat":-33.8688,"lon":151.2093,"aliases":["sydney"]},
  {"name":"Melbourne","iso":"AU","lat":-37.8136,"lon":144.9631,"aliases":["melbourne"]},
  {"name":"Brisbane","iso":"AU","lat":-27.4698,"lon":153.0251,"aliases":["brisbane","bne"]},
  {"name":"Perth","iso":"AU","lat":-31.9523,"lon":115.8613,"aliases":["perth"]},
  {"name":"Adelaide","iso":"AU","lat":-34.9285,"lon":138.6007,"aliases":["adelaide"]},
  {"name":"Auckland","iso":"NZ","lat":-36.8485,"lon":174.7633,"aliases":["auckland"]},
  {"name":"Wellington","iso":"NZ","lat":-41.2865,"lon":174.7762,"aliases":["wellington"]},
  {"name":"Christchurch","iso":"NZ","lat":-43.532,"lon":172.6306,"aliases":["christchurch","chch"]}
]
